{"crs": {"type": "name", "properties": {"name": "urn:ogc:def:crs:OGC:1.3:CRS84"}}, "type": "FeatureCollection", "features": [{"geometry": {"coordinates": [139.642395, 35.551836], "type": "Point"}, "id": "321", "type": "Feature", "properties": {"P29_001": "神奈川県横浜市港北区", "P29_002": "学校", "P29_003": "中学校", "P29_004": "中学校", "P29_005": "慶應義塾普通部", "P29_006": "日吉本町1-45-1", "P29_007": 4.0, "address": "神奈川県横浜市港北区日吉本町1-45-1", "name": "慶應義塾普通部", "label": "慶應義塾普通部", "x": 139.642395, "y": 35.551836}}, {"geometry": {"coordinates": [139.617508, 35.556863], "type": "Point"}, "id": "322", "type": "Feature", "properties": {"P29_001": "神奈川県横浜市港北区", "P29_002": "学校", "P29_003": "中学校", "P29_004": "中学校", "P29_005": "高田中学校", "P29_006": "高田町2439", "P29_007": 3.0, "address": "神奈川県横浜市港北区高田町2439", "name": "高田中学校", "label": "高田中学校", "x": 139.617508, "y": 35.556863}}, {"geometry": {"coordinates": [139.620537, 35.504758], "type": "Point"}, "id": "323", "type": "Feature", "properties": {"P29_001": "神奈川県横浜市港北区", "P29_002": "学校", "P29_003": "中学校", "P29_004": "中学校", "P29_005": "篠原中学校", "P29_006": "篠原町1342-3", "P29_007": 3.0, "address": "神奈川県横浜市港北区篠原町1342-3", "name": "篠原中学校", "label": "篠原中学校", "x": 139.620537, "y": 35.504758}}, {"geometry": {"coordinates": [139.587401, 35.50523], "type": "Point"}, "id": "324", "type": "Feature", "properties": {"P29_001": "神奈川県横浜市港北区", "P29_002": "学校", "P29_003": "中学校", "P29_004": "中学校", "P29_005": "城郷中学校", "P29_006": "小机町325", "P29_007": 3.0, "address": "神奈川県横浜市港北区小机町325", "name": "城郷中学校", "label": "城郷中学校", "x": 139.587401, "y": 35.50523}}, {"geometry": {"coordinates": [139.607288, 35.522645], "type": "Point"}, "id": "325", "type": "Feature", "properties": {"P29_001": "神奈川県横浜市港北区", "P29_002": "学校", "P29_003": "中学校", "P29_004": "中学校", "P29_005": "新羽中学校", "P29_006": "新羽町1434-4", "P29_007": 3.0, "address": "神奈川県横浜市港北区新羽町1434-4", "name": "新羽中学校", "label": "新羽中学校", "x": 139.607288, "y": 35.522645}}, {"geometry": {"coordinates": [139.622714, 35.540928], "type": "Point"}, "id": "326", "type": "Feature", "properties": {"P29_001": "神奈川県横浜市港北区", "P29_002": "学校", "P29_003": "中学校", "P29_004": "中学校", "P29_005": "新田中学校", "P29_006": "新吉田東5-25-1", "P29_007": 3.0, "address": "神奈川県横浜市港北区新吉田東5-25-1", "name": "新田中学校", "label": "新田中学校", "x": 139.622714, "y": 35.540928}}, {"geometry": {"coordinates": [139.624845, 35.520659], "type": "Point"}, "id": "327", "type": "Feature", "properties": {"P29_001": "神奈川県横浜市港北区", "P29_002": "学校", "P29_003": "中学校", "P29_004": "中学校", "P29_005": "大綱中学校", "P29_006": "大倉山3-40-1", "P29_007": 3.0, "address": "神奈川県横浜市港北区大倉山3-40-1", "name": "大綱中学校", "label": "大綱中学校", "x": 139.624845, "y": 35.520659}}, {"geometry": {"coordinates": [139.642312, 35.528395], "type": "Point"}, "id": "328", "type": "Feature", "properties": {"P29_001": "神奈川県横浜市港北区", "P29_002": "学校", "P29_003": "中学校", "P29_004": "中学校", "P29_005": "樽町中学校", "P29_006": "樽町4-15-1", "P29_007": 3.0, "address": "神奈川県横浜市港北区樽町4-15-1", "name": "樽町中学校", "label": "樽町中学校", "x": 139.642312, "y": 35.528395}}, {"geometry": {"coordinates": [139.627091, 35.551253], "type": "Point"}, "id": "329", "type": "Feature", "properties": {"P29_001": "神奈川県横浜市港北区", "P29_002": "学校", "P29_003": "中学校", "P29_004": "中学校", "P29_005": "日吉台西中学校", "P29_006": "日吉本町5-44-1", "P29_007": 3.0, "address": "神奈川県横浜市港北区日吉本町5-44-1", "name": "日吉台西中学校", "label": "日吉台西中学校", "x": 139.627091, "y": 35.551253}}, {"geometry": {"coordinates": [139.636756, 35.547559], "type": "Point"}, "id": "330", "type": "Feature", "properties": {"P29_001": "神奈川県横浜市港北区", "P29_002": "学校", "P29_003": "中学校", "P29_004": "中学校", "P29_005": "日吉台中学校", "P29_006": "日吉本町4-9-1", "P29_007": 3.0, "address": "神奈川県横浜市港北区日吉本町4-9-1", "name": "日吉台中学校", "label": "日吉台中学校", "x": 139.636756, "y": 35.547559}}, {"geometry": {"coordinates": [139.646442, 35.544921], "type": "Point"}, "id": "331", "type": "Feature", "properties": {"P29_001": "神奈川県横浜市港北区", "P29_002": "学校", "P29_003": "中学校", "P29_004": "中学校", "P29_005": "日本大学中学校", "P29_006": "箕輪町2-9-1", "P29_007": 4.0, "address": "神奈川県横浜市港北区箕輪町2-9-1", "name": "日本大学中学校", "label": "日本大学中学校", "x": 139.646442, "y": 35.544921}}, {"geometry": {"coordinates": [139.625425, 35.497037], "type": "Point"}, "id": "332", "type": "Feature", "properties": {"P29_001": "神奈川県横浜市港北区", "P29_002": "学校", "P29_003": "中学校", "P29_004": "中学校", "P29_005": "武相中学校", "P29_006": "仲手原2-34-1", "P29_007": 4.0, "address": "神奈川県横浜市港北区仲手原2-34-1", "name": "武相中学校", "label": "武相中学校", "x": 139.625425, "y": 35.497037}}]}